City_ID,City,Lat,Lng,Max Temp,Humidity,Cloudiness,Wind Speed,Country,Date
0,hithadhoo,-0.6,73.0833,27.89,69,5,0.62,MV,1681064295
1,flinders,-34.5833,150.8552,11.77,74,9,1.79,AU,1681064295
2,puerto ayora,-0.7393,-90.3518,29.98,84,41,3.13,EC,1681064296
3,bengkulu,-3.8004,102.2655,24.2,90,93,1.89,ID,1681064296
4,arraial do cabo,-22.9661,-42.0278,24.98,78,100,4.12,BR,1681064296
5,vila velha,-20.3297,-40.2925,26.97,74,40,7.72,BR,1681064296
6,hilo,19.7297,-155.09,23.95,77,40,1.54,US,1681064117
7,vallenar,-28.5708,-70.7581,28.25,34,3,3.12,CL,1681064218
8,leningradskiy,69.3833,178.4167,-19.85,97,100,6.77,RU,1681064003
9,narsaq,60.9167,-46.05,2.12,80,100,0.45,GL,1681064297
10,bluff,-46.6,168.3333,11.56,86,100,3.05,NZ,1681064297
11,upernavik,72.7868,-56.1549,-15.85,90,99,5.7,GL,1681064298
12,mataura,-46.1927,168.8643,11.38,96,98,1.81,NZ,1681064298
13,hasaki,35.7333,140.8333,7.34,59,7,4.51,JP,1681064298
14,port elizabeth,-33.918,25.5701,16.29,81,0,6.69,ZA,1681064298
15,ust-nera,64.5667,143.2,-17.15,96,76,3.37,RU,1681064298
16,yellowknife,62.456,-114.3525,1.29,69,40,1.54,CA,1681064081
17,ushuaia,-54.8,-68.3,-0.19,100,75,6.17,AR,1681064299
18,tautira,-17.7333,-149.15,26.91,77,100,6.68,PF,1681064299
19,new norfolk,-42.7826,147.0587,9.95,65,100,1.34,AU,1681064300
20,busselton,-33.65,115.3333,14.79,85,89,1.62,AU,1681064300
21,tuktoyaktuk,69.4541,-133.0374,-15.0,78,75,9.77,CA,1681064300
22,gualaceo,-2.9,-78.7833,19.81,85,99,2.69,EC,1681064301
23,peniche,39.3558,-9.3811,20.04,74,73,5.02,PT,1681064301
24,pangai,-19.8,-174.35,27.06,89,20,5.14,TO,1681064301
25,katsuura,35.1333,140.3,13.34,64,10,4.8,JP,1681064301
26,atuona,-9.8,-139.0333,26.52,77,3,4.75,PF,1681064302
27,tasiilaq,65.6145,-37.6368,6.09,78,100,20.07,GL,1681064302
28,santa rita do passa quatro,-21.7103,-47.4781,24.0,74,100,1.72,BR,1681064302
29,cidreira,-30.1811,-50.2056,23.87,73,28,6.41,BR,1681064302
30,torbay,47.6666,-52.7314,0.32,51,75,7.72,CA,1681064134
31,kapaa,22.0752,-159.319,24.18,79,40,8.75,US,1681064303
32,makakilo city,21.3469,-158.0858,23.18,80,20,4.12,US,1681064303
33,sitka,57.0531,-135.33,4.94,81,100,2.06,US,1681064303
34,poum,-20.2333,164.0167,26.02,73,19,1.05,NC,1681064303
35,atambua,-9.1061,124.8925,23.04,94,100,2.41,ID,1681064304
36,san cristobal,7.7669,-72.225,28.1,44,53,3.34,VE,1681064304
37,darnah,32.767,22.6367,15.11,78,7,5.97,LY,1681064304
38,lompoc,34.6391,-120.4579,24.27,67,2,1.34,US,1681064031
39,kresek,-6.1314,106.3797,27.84,84,91,3.72,ID,1681064304
40,vostok,46.4856,135.8833,-1.91,67,74,2.06,RU,1681064305
41,riyadh,24.6877,46.7219,26.08,10,19,3.39,SA,1681064305
42,praia da vitoria,38.7333,-27.0667,20.14,77,20,2.41,PT,1681064305
43,palora,-1.7,-77.9333,26.06,83,88,1.18,EC,1681064305
44,barrow,71.2906,-156.7887,-22.99,77,100,5.14,US,1681064306
45,lata,40.1629,-8.3327,20.51,47,49,2.59,PT,1681064306
46,zhigansk,66.7697,123.3711,-22.74,100,100,3.51,RU,1681064306
47,khatanga,71.9667,102.5,-20.72,99,100,2.74,RU,1681064306
48,half moon bay,37.4636,-122.4286,21.41,64,0,2.57,US,1681064057
49,albany,42.6001,-73.9662,12.67,21,0,0.89,US,1681064133
50,labuan,5.2767,115.2417,26.2,83,20,1.54,MY,1681064307
51,hermanus,-34.4187,19.2345,16.11,71,1,6.32,ZA,1681064307
52,port hedland,-20.3167,118.5667,27.03,69,13,5.14,AU,1681064308
53,jamestown,42.097,-79.2353,12.25,36,0,3.6,US,1681064017
54,vaini,-21.2,-175.2,23.09,94,20,1.03,TO,1681064308
55,chokurdakh,70.6333,147.9167,-26.01,94,63,3.52,RU,1681064308
56,provideniya,64.3833,-173.3,-21.8,90,78,2.39,RU,1681064309
57,regenstauf,49.1217,12.1292,8.01,79,66,1.45,DE,1681064309
58,maiduguri,11.8464,13.1603,35.82,14,88,2.1,NG,1681064309
59,hobart,-42.8794,147.3294,10.14,72,100,8.75,AU,1681064228
60,alugan,12.2188,125.4808,26.09,83,100,5.63,PH,1681064310
61,bambous virieux,-20.3428,57.7575,25.68,88,75,1.03,MU,1681064111
62,rikitea,-23.1203,-134.9692,24.68,61,1,3.29,PF,1681064310
63,nouadhibou,20.931,-17.0347,24.99,53,0,8.23,MR,1681064310
64,bethel,41.3712,-73.414,14.46,28,0,3.09,US,1681064311
65,saint-paul,-21.0096,55.2707,26.06,92,100,0.68,RE,1681064072
66,celina,40.5489,-84.5702,17.47,34,0,3.37,US,1681064311
67,inuvik,68.3499,-133.7218,-9.52,62,75,3.09,CA,1681064311
68,sao filipe,14.8961,-24.4956,22.12,71,31,5.87,CV,1681064311
69,mahebourg,-20.4081,57.7,25.7,88,75,1.03,MU,1681064312
70,jiazi,22.8779,116.067,18.09,72,3,3.94,CN,1681064312
71,punta arenas,-53.15,-70.9167,6.06,52,20,12.86,CL,1681064208
72,oriximina,-1.7656,-55.8661,31.85,56,43,0.72,BR,1681064312
73,thompson,55.7435,-97.8558,7.09,53,40,6.17,CA,1681064316
74,airai,-8.9266,125.4092,15.78,96,99,1.55,TL,1681064317
75,alma,48.5501,-71.6491,7.56,53,88,4.32,CA,1681064317
76,qaanaaq,77.484,-69.3632,-20.42,70,4,1.51,GL,1681064116
77,chongoyape,-6.6406,-79.3892,30.66,60,87,3.05,PE,1681064317
78,cherskiy,68.75,161.3,-26.66,91,5,1.47,RU,1681064318
79,mar del plata,-38.0023,-57.5575,28.24,49,0,7.72,AR,1681064318
80,joensuu,62.6012,29.7632,6.27,42,0,2.06,FI,1681064318
81,poronaysk,49.2167,143.1167,-2.56,73,8,3.04,RU,1681064318
82,lexington,37.9887,-84.4777,18.52,25,0,6.69,US,1681064057
83,ribeira grande,38.5167,-28.7,17.65,94,75,5.66,PT,1681064319
84,kaitangata,-46.2817,169.8464,13.05,96,95,4.9,NZ,1681064319
85,launceston,-41.45,147.1667,8.8,72,12,6.69,AU,1681064319
86,fairbanks,64.8378,-147.7164,-15.22,72,100,4.63,US,1681064132
87,carnarvon,-24.8667,113.6333,21.9,65,4,4.89,AU,1681064319
88,grants pass,42.439,-123.3284,15.46,66,100,0.0,US,1681064320
89,kavieng,-2.5744,150.7967,26.92,79,100,2.67,PG,1681064320
90,avarua,-21.2078,-159.775,24.03,100,24,0.51,CK,1681064320
91,ayan,56.45,138.1667,-11.78,79,11,4.44,RU,1681064320
92,placerville,38.7296,-120.7986,22.25,53,0,2.06,US,1681064321
93,alofi,-19.0595,-169.9187,24.94,94,27,3.09,NU,1681064321
94,cape town,-33.9258,18.4232,19.1,74,40,3.09,ZA,1681063901
95,orlik,52.5178,99.825,-12.38,83,98,6.6,RU,1681064321
96,castro,-24.7911,-50.0119,20.67,76,91,1.9,BR,1681064321
97,kalmunai,7.4167,81.8167,27.24,78,59,1.97,LK,1681064322
98,nikolskoye,59.7035,30.7861,7.94,98,44,2.25,RU,1681064322
99,seoul,37.5683,126.9778,6.69,87,0,1.03,KR,1681064232
100,hatta,24.1167,79.6,28.5,27,66,0.82,IN,1681064322
101,asyut,27.181,31.1837,32.06,10,92,2.93,EG,1681064322
102,shangrao,28.4532,117.9686,15.37,79,0,1.01,CN,1681064323
103,clyde river,70.4692,-68.5914,-18.87,71,0,0.0,CA,1681064323
104,snyder,32.7179,-100.9176,23.38,49,40,5.14,US,1681064323
105,casablanca,33.5928,-7.6192,25.12,56,0,3.09,MA,1681064323
106,faranah,10.0404,-10.7434,34.66,32,70,1.43,GN,1681064324
107,daru,-9.0763,143.2092,24.58,90,100,2.17,PG,1681064324
108,butaritari,3.0707,172.7902,27.09,80,84,2.82,KI,1681064324
109,morondava,-20.2833,44.2833,27.16,81,2,4.96,MG,1681064324
110,kamina,-8.7386,24.9906,19.5,90,91,0.53,CD,1681064325
111,port alfred,-33.5906,26.891,15.66,91,100,2.68,ZA,1681064325
112,dzemul,21.2,-89.3,33.36,30,3,3.74,MX,1681064325
113,smithers,54.7804,-127.1743,4.18,87,100,4.63,CA,1681064325
114,shimoda,34.6667,138.95,12.36,62,0,1.71,JP,1681064095
115,springbok,-29.6643,17.8865,10.31,48,0,3.47,ZA,1681064326
116,beisfjord,68.3751,17.5988,4.03,85,68,2.67,NO,1681064327
117,bredasdorp,-34.5322,20.0403,15.34,64,12,5.58,ZA,1681064327
118,dikson,73.5069,80.5464,-23.9,88,100,3.55,RU,1681064327
119,beyneu,45.3167,55.2,13.25,61,91,1.89,KZ,1681064327
120,luderitz,-26.6481,15.1594,15.96,53,0,11.19,NA,1681064328
121,hostotipaquillo,21.0667,-104.0667,30.92,15,77,0.41,MX,1681064328
122,tahe,52.3333,124.7333,-4.61,78,90,1.09,CN,1681064328
123,rumoi,43.9344,141.6428,1.46,85,38,2.84,JP,1681064328
124,port hardy,50.6996,-127.4199,7.0,100,100,2.57,CA,1681064328
125,la primavera,5.4906,-70.4092,31.32,51,70,2.76,CO,1681064329
126,fort frances,48.5999,-93.4003,13.12,38,0,4.12,CA,1681064329
127,guerrero negro,27.9769,-114.0611,18.63,61,65,5.17,MX,1681064329
128,coahuayana,18.7333,-103.6833,33.52,30,69,3.06,MX,1681064329
129,erdenet,49.0333,104.0833,-4.04,35,15,5.44,MN,1681064329
130,pangkalanbuun,-2.6833,111.6167,23.03,98,92,1.33,ID,1681064330
131,vorukh,39.8494,70.5838,11.23,65,96,3.28,TJ,1681064330
132,touros,-5.1989,-35.4608,28.48,72,98,6.12,BR,1681064330
133,avera,33.194,-82.5271,17.17,53,83,7.45,US,1681064330
134,ostrovnoy,68.0531,39.5131,0.43,94,100,5.44,RU,1681064330
135,zhukovka,53.534,33.728,11.15,69,96,1.99,RU,1681064331
136,nome,64.5011,-165.4064,-19.96,84,100,3.09,US,1681064331
137,mankera,31.3866,71.4407,28.94,20,1,2.9,PK,1681064332
138,bonthe,7.5264,-12.505,28.35,63,81,5.41,SL,1681064332
139,pevek,69.7008,170.3133,-30.64,100,100,2.27,RU,1681064332
140,dudinka,69.4058,86.1778,-31.44,100,88,2.15,RU,1681064332
141,jinka,5.65,36.65,22.19,51,94,1.08,ET,1681064332
142,port keats,-14.25,129.55,24.63,91,100,5.0,AU,1681064333
143,castleisland,52.2333,-9.4667,10.2,97,100,2.5,IE,1681064333
144,comodoro rivadavia,-45.8667,-67.5,5.92,70,75,5.66,AR,1681064333
145,ialibu,-6.2821,143.9935,13.19,98,100,1.01,PG,1681064333
146,rabo de peixe,37.8,-25.5833,16.73,88,40,4.63,PT,1681064334
147,kudahuvadhoo,2.6708,72.8944,28.26,74,10,4.28,MV,1681064334
148,noyabrsk,63.1994,75.4507,-0.82,96,100,7.21,RU,1681064334
149,saint-pierre,-21.3393,55.4781,25.82,83,75,3.09,RE,1681064305
150,yerbogachen,61.2767,108.0108,-15.95,96,100,1.61,RU,1681064334
151,lukovetskiy,64.2956,41.9211,0.12,92,100,1.15,RU,1681064335
152,bow island,49.8668,-111.3684,13.16,50,4,4.12,CA,1681064335
153,kamenka,51.3223,42.7678,8.2,55,48,2.64,RU,1681064335
154,fort nelson,58.8053,-122.7002,7.77,39,75,2.06,CA,1681064335
155,aswan,24.0934,32.907,33.08,24,7,1.87,EG,1681064335
156,machilipatnam,16.1667,81.1333,26.61,72,0,3.78,IN,1681064335
157,victoria,22.2855,114.1577,21.29,79,85,0.89,HK,1681064336
158,klaksvik,62.2266,-6.589,7.51,94,99,13.27,FO,1681064336
159,east london,-33.0153,27.9116,18.22,83,90,8.81,ZA,1681064336
160,richards bay,-28.783,32.0377,25.23,85,73,5.14,ZA,1681064336
161,buin,-33.7333,-70.75,31.35,10,0,2.82,CL,1681064337
162,chacaltianguis,18.3333,-95.8333,30.66,50,59,3.31,MX,1681064337
163,kyshtovka,56.555,76.6271,0.07,87,75,5.11,RU,1681064337
164,sarkand,45.41,79.9186,4.93,46,39,1.25,KZ,1681064337
165,talnakh,69.4865,88.3972,-27.5,96,81,1.7,RU,1681064338
166,iwanai,42.9744,140.5089,1.27,86,15,2.59,JP,1681064338
167,tacuarembo,-31.7333,-55.9833,28.02,34,0,1.87,UY,1681064338
168,nakasongola,1.3089,32.4564,19.84,86,49,2.18,UG,1681064339
169,endirey,43.1632,46.654,9.12,80,39,1.61,RU,1681064339
170,vila,42.0304,-8.1588,14.83,54,100,1.78,PT,1681063853
171,yaan,7.3833,8.5667,31.24,49,100,4.9,NG,1681064339
172,norman wells,65.282,-126.8329,-0.98,74,20,6.17,CA,1681064340
173,feijo,-8.1642,-70.3536,25.87,91,96,1.35,BR,1681064340
174,hofn,64.2539,-15.2082,6.96,92,100,11.14,IS,1681064340
175,saint-philippe,-21.3585,55.7679,25.77,83,100,2.86,RE,1681064340
176,riverton,40.5219,-111.9391,17.32,41,0,2.24,US,1681064104
177,gamba,-2.65,10.0,25.96,85,100,3.32,GA,1681064341
178,port shepstone,-30.7414,30.455,23.05,91,90,4.69,ZA,1681064341
179,pisco,-13.7,-76.2167,27.03,69,0,5.66,PE,1681064341
180,kirakira,-10.4544,161.9205,26.72,84,72,2.46,SB,1681064341
181,capinopolis,-18.6819,-49.5697,26.15,66,97,1.6,BR,1681064341
182,esil,51.9556,66.4042,3.14,48,1,2.13,KZ,1681064342
183,saint-georges,12.0564,-61.7485,28.82,70,20,7.72,GD,1681064044
184,vardo,70.3705,31.1107,0.99,80,75,5.14,NO,1681064342
185,lagoa,39.05,-27.9833,16.07,88,55,7.03,PT,1681064343
186,oktyabrskiy,54.4815,53.471,6.33,42,57,1.81,RU,1681064343
187,srednekolymsk,67.45,153.6833,-20.82,99,15,3.47,RU,1681064344
188,amboasary,-25.0333,46.3833,23.49,89,1,3.2,MG,1681064344
189,sabya,17.1495,42.6254,31.79,48,0,2.9,SA,1681064344
190,middle island,40.8843,-72.9373,12.58,46,0,6.17,US,1681064345
191,codrington,-38.2667,141.9667,12.65,74,92,5.79,AU,1681064345
192,beringovskiy,63.05,179.3167,-21.22,100,76,2.34,RU,1681064345
193,togur,58.3631,82.8265,-5.69,82,100,3.86,RU,1681064346
194,haines junction,60.7522,-137.5108,0.97,80,66,2.06,CA,1681064346
195,soyo,-6.1349,12.3689,27.37,85,100,3.6,AO,1681064346
196,college,64.8569,-147.8028,-15.23,72,100,4.63,US,1681064346
197,mutsu,41.2894,141.2169,5.92,78,6,4.78,JP,1681064347
198,yulara,-25.2406,130.9889,22.19,32,44,3.96,AU,1681064347
199,shebunino,46.4339,141.8603,2.16,89,16,3.65,RU,1681064347
200,bendigo,-36.7667,144.2833,7.7,55,9,3.29,AU,1681064347
201,aztec,36.8222,-107.9929,17.18,24,66,1.52,US,1681064273
202,saskylakh,71.9167,114.0833,-19.52,99,99,1.08,RU,1681064348
203,roma,43.2128,-75.4557,11.49,24,0,4.02,US,1681064348
204,awjilah,29.1081,21.2869,20.0,45,0,9.82,LY,1681064349
205,winona,43.9666,-91.7668,19.89,17,0,5.14,US,1681064349
206,shelburne,44.0787,-80.2041,9.57,42,9,2.07,CA,1681064349
207,jiwani,25.05,61.7417,25.26,67,33,4.66,PK,1681064349
208,warmbad,-28.45,18.7333,17.38,22,0,6.29,NA,1681064350
209,iqaluit,63.7506,-68.5145,-19.15,65,20,7.2,CA,1681064295
210,geraldton,-28.7667,114.6,12.23,87,0,2.57,AU,1681064351
211,kodiak,57.79,-152.4072,-7.27,45,0,11.83,US,1681064351
212,mount gambier,-37.8333,140.7667,11.25,86,82,2.48,AU,1681064352
213,dubbo,-32.25,148.6167,5.07,93,0,3.09,AU,1681064352
214,itarema,-2.9248,-39.9167,27.37,83,96,3.88,BR,1681064352
215,tual,-5.6667,132.75,28.09,75,100,3.31,ID,1681064352
216,watsa,3.0372,29.5355,21.09,75,53,1.37,CD,1681064353
217,ayabaca,-4.6398,-79.7149,18.03,59,69,2.13,PE,1681064353
218,saldanha,-33.0117,17.9442,15.03,73,0,3.77,ZA,1681064353
219,reconquista,-29.15,-59.65,28.31,34,0,1.09,AR,1681064354
220,nanortalik,60.1432,-45.2371,-1.25,92,100,8.09,GL,1681064354
221,binzhou,37.3667,118.0167,18.92,54,16,8.11,CN,1681064354
222,isangel,-19.55,169.2667,26.45,82,36,1.4,VU,1681064355
223,saint-joseph,-21.3667,55.6167,25.21,83,100,1.22,RE,1681064355
224,manaia,-39.55,174.1333,16.43,86,100,5.32,NZ,1681064355
225,krapivinskiy,54.9992,86.8133,-6.79,85,59,1.91,RU,1681064355
226,rocha,-34.4833,-54.3333,27.31,32,0,3.29,UY,1681064146
227,tiksi,71.6872,128.8694,-16.71,92,100,3.35,RU,1681064356
228,honningsvag,70.9821,25.9704,2.86,81,75,3.6,NO,1681064356
229,mehamn,71.0357,27.8492,2.97,87,75,6.69,NO,1681064357
230,astana,51.1801,71.446,-4.03,63,0,2.0,KZ,1681064357
231,namibe,-15.1961,12.1522,24.22,78,68,5.54,AO,1681064357
232,gaspe,48.8334,-64.4819,-0.05,55,100,7.2,CA,1681064358
233,dzhebariki-khaya,62.2167,135.8,-27.23,100,77,0.76,RU,1681064358
234,fort saint james,54.4333,-124.25,5.09,87,100,5.27,CA,1681064358
235,krasnyy chikoy,50.3643,108.7512,-3.48,83,100,6.08,RU,1681064358
236,esperance,-33.8667,121.9,15.63,91,20,5.16,AU,1681064358
237,palana,59.1167,159.9667,-9.81,85,94,5.11,RU,1681064359
238,lavrentiya,65.5833,-171.0,-19.47,88,100,3.18,RU,1681064359
239,westport,41.1415,-73.3579,14.23,38,0,5.14,US,1681063569
240,sorong,-0.8833,131.25,26.03,85,100,2.11,ID,1681064360
241,juybar,36.6412,52.9124,13.09,85,51,2.05,IR,1681064360
242,olafsvik,64.8945,-23.7142,6.84,83,100,12.55,IS,1681064361
243,kindu,-2.95,25.95,23.16,81,23,0.32,CD,1681064361
244,port macquarie,-31.4333,152.9167,9.94,65,0,3.12,AU,1681064361
245,leua,48.2156,18.6071,6.27,74,92,0.84,SK,1681064361
246,salinopolis,-0.6136,-47.3561,27.47,79,74,2.5,BR,1681064189
247,vire,48.9167,-0.8333,13.66,79,100,2.5,FR,1681064362
248,narasannapeta,18.4167,84.05,27.13,68,8,2.41,IN,1681064362
249,lebu,-37.6167,-73.65,17.77,56,99,2.54,CL,1681064362
250,cabo san lucas,22.8909,-109.9124,28.12,41,40,2.06,MX,1681064110
251,namatanai,-3.6667,152.4333,25.62,85,100,1.95,PG,1681064363
252,margate,51.3813,1.3862,12.05,78,92,0.45,GB,1681064311
253,paamiut,61.994,-49.6678,-2.27,82,100,12.45,GL,1681064363
254,umm kaddadah,13.6017,26.6876,30.83,9,82,4.58,SD,1681064363
255,kulunda,52.566,78.9385,2.41,64,80,1.97,RU,1681064364
256,ponta do sol,32.6667,-17.1,20.95,69,1,2.15,PT,1681064364
257,araouane,18.9048,-3.5265,33.07,11,100,5.72,ML,1681064364
258,fallon,39.4735,-118.7774,17.84,33,0,0.0,US,1681064202
259,nioro,13.35,-15.75,36.33,14,55,3.29,GM,1681064365
260,kholtoson,50.2981,103.3097,-7.8,68,70,2.61,RU,1681064365
261,san bartolome de tirajana,27.9248,-15.5733,15.73,62,20,10.8,ES,1681064365
262,fortuna,40.5982,-124.1573,20.52,53,50,1.34,US,1681064366
263,christchurch,-43.5333,172.6333,15.51,91,98,5.14,NZ,1681064366
264,limbang,4.75,115.0,25.06,98,73,0.98,MY,1681064366
265,broome,42.2506,-75.833,13.34,28,0,1.79,US,1681064367
266,asau,46.4333,26.4,4.6,90,78,0.91,RO,1681064367
267,mount isa,-20.7333,139.5,11.87,71,89,0.0,AU,1681064367
268,griffith,41.5284,-87.4237,20.06,27,0,5.66,US,1681064368
269,petropavlovsk-kamchatskiy,53.0452,158.6483,0.33,100,100,3.0,RU,1681064368
270,chumikan,54.7183,135.315,-11.0,95,94,0.66,RU,1681064368
271,ambon,-3.6954,128.1814,25.08,94,20,2.06,ID,1681064368
272,bathsheba,13.2167,-59.5167,29.34,65,40,9.26,BB,1681063914
273,bilma,18.6853,12.9164,34.07,11,47,3.99,NE,1681064369
274,nha trang,12.25,109.1833,27.0,93,19,2.27,VN,1681064369
275,cardston,49.2,-113.3019,13.08,35,86,6.17,CA,1681064369
276,maragogi,-9.0122,-35.2225,28.22,72,82,4.31,BR,1681064369
277,kurduvadi,18.0833,75.4333,31.0,37,57,5.96,IN,1681064370
278,cap malheureux,-19.9842,57.6142,25.82,78,100,1.34,MU,1681064370
279,castleblayney,54.1167,-6.7333,11.01,92,100,7.1,IE,1681064370
280,tsiroanomandidy,-18.7667,46.0333,19.67,90,3,0.52,MG,1681064370
281,lemery,11.2258,122.9275,23.47,91,99,2.21,PH,1681064371
282,cayenne,4.9333,-52.3333,30.02,66,100,4.12,GF,1681064371
283,maltahohe,-24.8333,16.9833,18.59,17,0,6.43,NA,1681064371
284,jega,12.2175,4.3792,37.24,10,97,4.04,NG,1681064371
285,matara,5.9485,80.5353,25.8,79,14,3.58,LK,1681064372
286,severo-kurilsk,50.6789,156.125,0.78,97,100,5.74,RU,1681064372
287,san andres,12.5847,-81.7006,30.01,62,20,5.66,CO,1681064372
288,hwange,-18.3693,26.5019,23.46,45,71,1.87,ZW,1681064353
289,komsomolskiy,40.4272,71.7189,14.4,67,93,1.03,UZ,1681064372
290,hobyo,5.3505,48.5268,29.12,70,2,7.39,SO,1681064373
291,kidal,18.4411,1.4078,34.07,11,95,3.5,ML,1681064373
292,baherden,38.4362,57.4316,18.9,45,34,3.9,TM,1681064373
293,bon air,37.5249,-77.5578,17.04,31,0,4.12,US,1681064373
294,acapulco,16.8634,-99.8901,30.9,51,0,5.66,MX,1681064360
295,sobolevo,54.4299,31.8996,9.89,68,47,0.45,RU,1681064374
296,pinar del rio,22.4175,-83.6981,33.31,33,2,0.78,CU,1681064374
297,banikoara,11.2985,2.4386,37.25,12,86,2.27,BJ,1681064374
298,oskarshamn,57.2645,16.4484,3.88,62,40,1.76,SE,1681064375
299,ust-karsk,52.7011,118.8077,-1.87,81,100,1.77,RU,1681064375
300,kununurra,-15.7667,128.7333,25.99,89,75,1.54,AU,1681064240
301,vaitape,-16.5167,-151.75,27.54,75,100,6.9,PF,1681064375
302,mana,5.6592,-53.7767,28.86,61,48,3.83,GF,1681064376
303,hay river,60.8156,-115.7999,3.98,75,20,5.14,CA,1681064376
304,waingapu,-9.6567,120.2641,25.03,87,100,3.96,ID,1681064376
305,san jose,37.3394,-121.895,21.91,50,20,12.07,US,1681063767
306,sabzevar,36.2126,57.6819,18.21,38,6,3.0,IR,1681064376
307,san patricio,28.017,-97.5169,25.65,63,34,2.72,US,1681064377
308,matay,28.419,30.7792,29.77,22,100,6.53,EG,1681064377
309,dingle,10.9995,122.6711,23.76,88,100,2.62,PH,1681064378
310,atbasar,51.8,68.3333,1.2,58,2,1.79,KZ,1681064378
311,fayaoue,-20.65,166.5333,27.04,71,4,3.2,NC,1681064378
312,salalah,17.0151,54.0924,28.05,74,40,2.06,OM,1681064379
313,ahipara,-35.1667,173.1667,17.64,94,14,5.3,NZ,1681064379
314,mayo,38.8876,-76.5119,16.31,35,0,4.63,US,1681064379
315,lorengau,-2.0226,147.2712,25.3,90,100,2.76,PG,1681064379
316,tevaitoa,-16.7833,-151.5,27.61,75,100,7.06,PF,1681064379
317,natal,-5.795,-35.2094,31.36,62,20,6.69,BR,1681064380
318,san pedro,14.35,121.0167,26.86,76,20,1.54,PH,1681064380
319,sunbury,-37.5833,144.7333,10.86,94,75,6.69,AU,1681064381
320,jiaozuo,35.2397,113.2331,18.02,48,24,2.31,CN,1681064381
321,port blair,11.6667,92.75,28.02,83,40,1.03,IN,1681064381
322,tayirove,46.3631,30.6489,10.15,72,73,1.22,UA,1681064382
323,vedea,43.7833,25.7833,10.16,61,100,3.67,RO,1681064382
324,villa carlos paz,-31.4241,-64.4978,30.03,51,0,2.68,AR,1681064074
325,puerto madero,14.7208,-92.4215,32.11,62,20,3.09,MX,1681064382
326,portland,45.5234,-122.6762,12.67,89,100,4.63,US,1681063620
327,hovd,48.0056,91.6419,-2.78,44,31,2.83,MN,1681064383
328,santa maria del oro,25.9333,-105.3667,24.3,21,2,1.04,MX,1681064383
329,kurilsk,45.2333,147.8833,-0.31,78,69,9.65,RU,1681064384
330,menongue,-14.6585,17.691,18.63,68,55,2.49,AO,1681064384
331,totness,5.8833,-56.3167,29.01,60,55,4.39,SR,1681064384
332,veraval,20.9,70.3667,26.18,58,20,4.9,IN,1681064384
333,dolores,-36.3132,-57.6792,28.9,25,2,5.37,AR,1681064385
334,katobu,-4.9408,122.5276,24.14,91,79,2.26,ID,1681064385
335,kavarna,43.4333,28.3333,9.68,79,100,3.27,BG,1681064385
336,moree,-29.4667,149.85,11.98,53,0,3.41,AU,1681064386
337,anadyr,64.75,177.4833,-25.72,76,20,2.0,RU,1681064386
338,longyearbyen,78.2186,15.6401,0.91,86,75,4.63,SJ,1681064386
339,terrace bay,48.7834,-87.1,1.4,96,44,6.46,CA,1681064387
340,ondangwa,-17.9167,15.95,28.0,39,77,1.03,NA,1681064387
341,maldonado,-34.6667,-54.9167,25.66,34,0,0.32,UY,1681064387
342,kloulklubed,7.0419,134.2556,24.28,77,100,5.75,PW,1681064387
343,sayyan,15.1718,44.3244,15.75,58,89,3.23,YE,1681064388
344,polunochnoye,60.8697,60.4153,-0.97,84,21,3.62,RU,1681064388
345,chunskiy,56.0815,99.6342,-10.75,77,96,5.81,RU,1681064388
346,semey,50.4111,80.2275,2.58,41,0,2.81,KZ,1681064389
347,korla,41.7597,86.1469,14.01,24,30,5.36,CN,1681064389
348,ivdel,60.6911,60.4206,0.34,82,25,4.3,RU,1681064389
349,garowe,8.4054,48.4845,27.54,57,25,9.23,SO,1681064389
350,nizhniy kuranakh,58.8353,125.4869,-18.59,93,44,1.68,RU,1681064389
351,klyuchi,52.2667,79.1667,2.42,59,61,2.46,RU,1681064390
352,belyy yar,53.6039,91.3903,-8.06,53,0,2.0,RU,1681064390
353,bandarbeyla,9.4942,50.8122,28.16,73,16,5.39,SO,1681064390
354,hobbs,32.7026,-103.136,23.23,43,0,5.66,US,1681064390
355,kodinsk,58.6881,99.1844,-11.38,98,73,1.52,RU,1681064390
356,shizukuishi,39.6833,140.9833,3.28,87,20,2.01,JP,1681064391
357,vilyuysk,63.7553,121.6247,-19.1,100,100,1.07,RU,1681064391
358,yuncheng,35.0231,110.9928,16.74,53,8,1.16,CN,1681064391
359,conceicao do araguaia,-8.2578,-49.2647,28.08,78,99,0.64,BR,1681064391
360,faanui,-16.4833,-151.75,27.48,76,100,6.88,PF,1681064392
361,shingu,33.7333,135.9833,8.15,70,0,2.56,JP,1681064392
362,axim,4.8699,-2.2405,26.29,83,100,3.7,GH,1681064392
363,kahului,20.8947,-156.47,24.01,81,40,6.69,US,1681064392
364,yuanping,38.7153,112.7575,11.71,30,15,1.77,CN,1681064392
365,arman,59.7,150.1667,-15.22,84,70,3.7,RU,1681064392
366,itaituba,-4.2761,-55.9836,34.09,52,40,4.12,BR,1681064393
367,kruisfontein,-34.0033,24.7314,14.38,85,81,3.37,ZA,1681064393
368,conde,-7.2597,-34.9075,28.7,70,20,5.14,BR,1681064393
369,caravelas,-17.7125,-39.2481,28.45,70,50,2.35,BR,1681064393
370,dalbandin,28.8947,64.4101,25.26,24,95,2.47,PK,1681064394
371,buraydah,26.326,43.975,25.25,12,23,5.23,SA,1681064394
372,zaysan,47.4667,84.8667,-0.36,48,0,0.95,KZ,1681064394
373,vila franca do campo,37.7167,-25.4333,17.23,84,95,4.36,PT,1681064394
374,istok,42.7808,20.4875,5.79,95,100,1.28,XK,1681064394
375,forest hills,42.9595,-85.4898,19.16,30,20,3.09,US,1681064395
376,souillac,-20.5167,57.5167,25.21,88,75,1.03,MU,1681064395
377,nantucket,41.2835,-70.0995,9.08,47,0,4.63,US,1681064139
378,goundam,16.4145,-3.6708,36.48,15,97,3.19,ML,1681064395
379,pangnirtung,66.1451,-65.7125,-21.0,77,0,2.06,CA,1681064395
380,humberto de campos,-2.5983,-43.4611,28.18,81,63,1.31,BR,1681064396
381,kenora,49.8167,-94.4337,6.54,61,20,7.2,CA,1681064133
382,tiznit,29.5833,-9.5,25.56,16,100,5.13,MA,1681064396
383,kawalu,-7.3817,108.2082,22.12,97,91,0.38,ID,1681064397
384,qasigiannguit,68.8193,-51.1922,-2.86,90,100,2.19,GL,1681064397
385,sioux lookout,50.1001,-91.917,11.04,40,75,8.23,CA,1681064397
386,ife,7.4667,4.5667,24.44,85,97,1.79,NG,1681064398
387,san pedro de macoris,18.4616,-69.2972,31.34,61,15,5.58,DO,1681064398
388,tura,25.5198,90.2201,23.51,33,18,2.06,IN,1681064399
389,bubaque,11.2833,-15.8333,25.51,73,3,10.83,GW,1681064399
390,rock falls,41.7798,-89.689,19.52,23,0,5.14,US,1681064399
391,xining,36.6167,101.7667,7.92,15,14,0.6,CN,1681064399
392,lira,2.235,32.9097,24.55,41,30,3.46,UG,1681064399
393,offa,8.15,4.7167,27.26,66,88,4.62,NG,1681064400
394,upata,8.0086,-62.3989,35.18,28,76,2.77,VE,1681064400
395,northam,51.0333,-4.2167,12.56,80,100,6.67,GB,1681064401
396,santa cruz,-17.8,-63.1667,30.03,48,40,4.63,BO,1681064401
397,chuy,-33.6971,-53.4616,24.37,51,2,4.01,UY,1681064181
398,doha,25.2867,51.5333,24.17,58,0,1.54,QA,1681064115
399,ouadda,8.0777,22.4007,29.51,31,100,1.01,CF,1681064402
400,neiafu,-18.65,-173.9833,27.38,78,20,4.12,TO,1681064403
401,mahbubabad,17.6167,80.0167,29.02,45,39,3.15,IN,1681064404
402,enid,36.3956,-97.8784,23.82,34,0,7.2,US,1681064404
403,emerald,-23.5333,148.1667,17.87,38,0,3.57,AU,1681064405
404,tulum,20.2167,-87.4667,30.63,40,2,3.37,MX,1681064405
405,batemans bay,-35.7167,150.1833,13.94,65,14,3.19,AU,1681064405
406,sibolga,1.7427,98.7792,24.43,89,100,1.55,ID,1681064406
407,port lincoln,-34.7333,135.8667,15.26,74,47,4.01,AU,1681064135
408,lipin bor,60.2622,37.9763,0.68,98,28,2.77,RU,1681064407
409,erzin,36.9559,36.2,16.94,68,100,3.82,TR,1681064407
410,rupert,42.6191,-113.6772,13.97,38,0,0.0,US,1681064408
411,izacic,44.875,15.7819,4.59,97,100,1.74,BA,1681064408
412,ciudad guayana,8.3533,-62.6528,37.33,27,73,3.96,VE,1681064408
413,le vauclin,14.5452,-60.8388,28.03,69,75,7.2,MQ,1681064409
414,wellington,-41.2866,174.7756,17.53,81,20,4.12,NZ,1681063849
415,nuuk,64.1835,-51.7216,-3.66,93,100,12.35,GL,1681064116
416,adrar,20.5022,-10.0711,27.35,31,78,11.52,MR,1681064409
417,kutum,14.2,24.6667,28.94,10,64,2.74,SD,1681064410
418,balabac,7.9868,117.0645,26.5,79,86,2.09,PH,1681064410
419,abha,18.2164,42.5053,18.14,45,0,2.57,SA,1681064410
420,intipuca,13.1969,-88.0544,33.97,32,0,1.96,SV,1681064411
421,bay roberts,47.5999,-53.2648,0.64,47,94,4.47,CA,1681064411
422,payson,40.0444,-111.7321,17.36,43,0,2.57,US,1681064413
423,peterhead,57.5058,-1.7981,7.22,84,98,11.45,GB,1681064413
424,saint george,37.1041,-113.5841,21.91,31,0,1.34,US,1681064413
425,qui nhon,13.7667,109.2333,24.51,91,37,1.73,VN,1681064413
426,pitimbu,-7.4706,-34.8086,29.33,75,100,4.88,BR,1681064414
427,tuatapere,-46.1333,167.6833,9.14,80,100,1.57,NZ,1681064414
428,aklavik,68.2191,-135.0107,-16.0,66,75,1.03,CA,1681064415
429,hualmay,-11.0964,-77.6139,26.46,73,80,4.91,PE,1681064415
430,rancho veloz,22.8806,-80.3917,29.15,51,5,5.05,CU,1681064416
431,colares,38.7992,-9.4469,21.82,37,0,5.66,PT,1681064416
432,nemuro,43.3236,145.575,1.31,75,11,5.98,JP,1681064416
433,muros,42.7762,-9.0603,17.05,75,100,1.23,ES,1681064417
434,turinsk,58.0458,63.696,4.06,72,22,3.43,RU,1681064418
435,norrtalje,59.758,18.705,6.1,95,30,2.74,SE,1681064418
436,campoverde,-8.4753,-74.8058,26.83,52,79,2.32,PE,1681064419
437,yankton,42.8711,-97.3973,20.06,29,75,4.63,US,1681064159
438,biltine,14.5333,20.9167,35.35,8,8,3.49,TD,1681064419
439,mancio lima,-7.6142,-72.8958,25.04,82,100,4.63,BR,1681064420
440,aripuana,-9.1667,-60.6333,28.38,79,92,1.12,BR,1681064420
441,pokrovka,42.3414,78.0056,6.92,72,100,0.21,KG,1681064420
442,faya,18.3851,42.4509,18.29,57,7,0.24,SA,1681064421
443,edson,53.5835,-116.4356,7.08,45,20,2.57,CA,1681064421
444,kaka,37.3482,59.6143,18.99,39,68,3.59,TM,1681064421
445,suluq,31.6682,20.2521,16.25,70,1,7.42,LY,1681064422
446,mareeba,-17.0,145.4333,21.91,89,94,0.45,AU,1681064422
447,mogok,22.9167,96.5,19.7,28,0,0.86,MM,1681064326
448,georgetown,5.4112,100.3354,26.96,88,20,1.03,MY,1681064353
449,buala,-8.145,159.5921,26.42,82,92,1.29,SB,1681064423
450,porgera,-5.4667,143.2,6.57,100,100,0.38,PG,1681064423
451,gavle,60.6745,17.1417,4.1,68,59,2.95,SE,1681064424
452,nchelenge,-9.3451,28.734,21.97,78,80,1.25,ZM,1681064424
453,los llanos de aridane,28.6585,-17.9182,17.86,67,40,6.26,ES,1681064424
454,mezen,65.8522,44.24,-1.77,91,100,3.71,RU,1681064424
455,praia,14.9215,-23.5087,24.3,57,20,10.8,CV,1681064425
456,asgardstrand,59.3489,10.4675,9.77,50,75,3.09,NO,1681064425
457,isla mujeres,21.2311,-86.731,29.03,48,0,3.34,MX,1681064425
458,ekhabi,53.5102,142.9671,-7.58,82,15,4.65,RU,1681064425
459,sovetskaya,44.7769,41.1722,9.73,75,88,2.8,RU,1681064426
460,pyu,18.4833,96.4333,25.63,54,10,2.66,MM,1681064426
461,saint-quentin,49.8333,3.3333,13.05,73,76,3.37,FR,1681064427
462,lasa,46.6166,10.7002,9.49,84,42,2.8,IT,1681064427
463,puerto ayacucho,5.6639,-67.6236,29.45,63,74,0.54,VE,1681064427
464,valentin gomez farias,28.2167,-106.5833,21.77,11,0,1.79,MX,1681064428
465,turukhansk,65.8167,87.9833,-26.0,100,90,2.71,RU,1681064428
466,berlevag,70.8578,29.0864,3.0,87,40,11.32,NO,1681064428
467,tezu,27.9167,96.1667,22.45,46,16,2.02,IN,1681064429
468,vetluzhskiy,58.3902,45.4654,4.69,59,63,1.08,RU,1681064429
469,samoded,63.6083,40.5111,-0.36,90,90,1.91,RU,1681064429
470,alyangula,-13.8483,136.4192,27.09,80,100,3.66,AU,1681064430
471,lubango,-14.9172,13.4925,16.98,80,95,1.86,AO,1681064430
472,acarau,-2.8856,-40.12,27.55,81,98,3.2,BR,1681064430
473,puerto asis,0.5133,-76.5007,31.43,49,97,0.84,CO,1681064430
474,agutaya,11.148,120.9417,27.44,77,88,10.57,PH,1681064431
475,venustiano carranza,19.43,-99.0992,23.97,37,75,4.63,MX,1681064384
476,kattivakkam,13.2167,80.3167,29.48,80,0,2.99,IN,1681064431
477,owensboro,37.7742,-87.1133,20.03,20,0,5.66,US,1681064431
478,yaguajay,22.3272,-79.2378,30.18,48,0,4.83,CU,1681064432
479,tolaga bay,-38.3667,178.3,17.22,94,90,3.82,NZ,1681064432
480,moyo,3.6609,31.7247,25.08,49,76,0.58,UG,1681064433
481,isoka,-10.1606,32.6335,17.38,94,73,0.41,ZM,1681064433
482,kokkola,63.8385,23.1307,3.35,79,0,1.03,FI,1681064433
483,pagudpud,18.5616,120.7868,22.6,88,52,6.5,PH,1681064434
484,vestmannaeyjar,63.4427,-20.2734,6.55,93,100,10.29,IS,1681064434
485,havoysund,70.9963,24.6622,3.13,87,81,8.09,NO,1681064434
486,aykhal,66.0,111.5,-29.06,100,95,1.22,RU,1681064435
487,magdagachi,53.45,125.8,-10.0,95,31,1.27,RU,1681064435
488,ereymentau,51.6199,73.1033,1.88,48,31,2.4,KZ,1681064435
489,newton,42.337,-71.2092,13.14,24,0,6.17,US,1681064435
490,talara,-4.5772,-81.2719,30.42,66,40,2.06,PE,1681064436
491,roald,62.5833,6.1333,9.51,57,0,2.57,NO,1681064436
492,chernyshevskiy,63.0128,112.4714,-28.68,100,96,0.96,RU,1681064436
493,ilulissat,69.2167,-51.1,-2.99,80,100,3.09,GL,1681064436
494,broken hill,-31.95,141.4333,10.84,70,0,3.26,AU,1681064437
495,mabaruma,8.2,-59.7833,30.43,53,55,3.32,GY,1681064437
496,vangaindrano,-23.35,47.6,23.39,88,31,0.91,MG,1681064437
497,prince rupert,54.3161,-130.3201,5.83,86,100,16.46,CA,1681064142
498,dabakala,8.3667,-4.4333,32.96,42,100,2.39,CI,1681064438
499,sorkjosen,69.8,20.9333,1.0,86,0,1.03,NO,1681064438
500,ankara,39.9199,32.8543,12.89,60,75,1.54,TR,1681064438
501,santa maria,-29.6842,-53.8069,28.54,45,31,1.77,BR,1681063896
502,bilibino,68.0546,166.4372,-27.87,91,21,2.48,RU,1681064438
503,mecca,21.4267,39.8261,29.54,45,53,2.48,SA,1681064423
504,kroya,-7.6331,109.2461,25.06,87,93,1.5,ID,1681064439
505,luba,3.4568,8.5547,25.94,85,100,2.98,GQ,1681064439
506,balkhash,46.844,74.9804,5.23,43,4,5.39,KZ,1681064439
507,huarmey,-10.0681,-78.1522,27.64,71,87,5.63,PE,1681064439
508,bonnyville,54.2668,-110.735,8.62,86,82,2.14,CA,1681064266
509,ambilobe,-13.2,49.05,23.64,94,92,1.75,MG,1681064440
510,honiara,-9.4333,159.95,25.04,87,39,2.08,SB,1681064440
511,alvin,29.4238,-95.2441,23.94,73,100,1.54,US,1681064398
512,verkhoyansk,67.5447,133.385,-28.1,81,1,3.08,RU,1681064441
513,egvekinot,66.3167,-179.1667,-23.53,88,84,2.41,RU,1681064441
514,peleduy,59.6289,112.7406,-9.17,98,100,1.49,RU,1681064441
515,kungurtug,50.5994,97.5228,-9.84,75,69,6.73,RU,1681064441
516,walvis bay,-22.9575,14.5053,16.26,68,0,9.9,NA,1681064442
517,katherine,-14.4667,132.2667,24.18,88,40,2.57,AU,1681064442
518,nizhnyaya tavda,57.6731,66.1725,4.59,69,26,3.35,RU,1681064443
519,opuwo,-18.0607,13.84,25.31,38,91,3.2,NA,1681064443
520,tommot,58.9564,126.2925,-23.08,97,54,1.37,RU,1681064443
521,vao,-22.6667,167.4833,25.16,77,4,3.88,NC,1681064443
522,champerico,14.3,-91.9167,34.3,58,4,5.38,GT,1681064443
523,kuryk,43.2,51.65,12.2,73,93,3.3,KZ,1681064444
524,yar,58.249,52.1026,0.89,82,15,2.16,RU,1681064444
525,damavand,35.7178,52.065,12.37,44,76,0.48,IR,1681064444
526,oranjemund,-28.55,16.4333,14.11,82,0,5.54,NA,1681064046
527,hirara,24.8,125.2833,16.15,77,75,1.54,JP,1681064445
528,oyama,36.3,139.8,10.88,43,3,1.24,JP,1681064445
529,kwekwe,-18.9281,29.8149,21.86,44,78,1.37,ZW,1681064445
530,ratnagiri,16.9833,73.3,27.02,83,5,2.66,IN,1681064445
531,andros town,24.7,-77.7667,27.98,61,20,3.56,BS,1681064445
532,tereze,43.9361,42.4434,5.09,90,100,1.52,RU,1681064446
533,tahta,26.7693,31.5021,32.51,11,85,0.54,EG,1681064446
534,byron bay,-28.65,153.6167,15.31,60,0,3.84,AU,1681064446
535,bermejo,-32.8833,-68.8,29.95,37,0,3.6,AR,1681064446
536,dzaoudzi,-12.7887,45.2699,26.94,89,75,3.09,YT,1681064447
537,haicheng,40.8516,122.7475,9.43,68,51,6.73,CN,1681064447
538,thai binh,20.45,106.3333,20.53,93,99,2.18,VN,1681064296
539,la rochelle,46.1667,-1.15,15.49,67,0,2.57,FR,1681064447
540,seryshevo,51.0933,128.3786,0.9,66,41,3.59,RU,1681064448
541,alexandria,31.2156,29.9553,20.28,74,99,5.71,EG,1681064448
542,quatre cocos,-20.2078,57.7625,25.61,82,100,3.69,MU,1681064448
543,plettenberg bay,-34.0527,23.3716,14.02,81,65,2.75,ZA,1681064448
544,galeana,24.8333,-100.0667,17.4,69,63,1.67,MX,1681063861
545,ormara,25.2088,64.6357,25.35,70,99,3.57,PK,1681064449
546,te anau,-45.4167,167.7167,9.89,80,99,0.42,NZ,1681064449
547,gambela,8.25,34.5833,26.97,59,94,2.3,ET,1681064449
548,sola,-13.8833,167.55,28.29,76,68,5.46,VU,1681064450
549,astara,38.5,48.6667,11.99,73,59,0.36,AZ,1681064450
550,nevelsk,46.6733,141.8633,0.81,89,16,3.18,RU,1681064450
551,leeston,-43.7667,172.3,15.5,93,100,5.27,NZ,1681064451
552,denpasar,-8.65,115.2167,26.81,100,75,4.63,ID,1681064378
553,ghanzi,-21.5667,21.7833,24.08,45,80,1.81,BW,1681064451
554,kerema,-7.9631,145.7785,24.64,88,100,3.44,PG,1681064451
555,methoni,36.8197,21.7049,13.45,81,14,3.44,GR,1681064451
556,amahai,-3.3333,128.9167,25.55,84,81,1.91,ID,1681064452
557,husavik,66.0449,-17.3389,6.18,77,85,10.24,IS,1681064452
558,horki,54.2861,30.9842,9.83,71,44,1.72,BY,1681064452
559,marienburg,54.0359,19.0266,7.71,91,72,3.19,PL,1681064453
560,shenjiamen,29.9576,122.298,12.77,80,63,8.29,CN,1681064453
561,glomfjord,66.8167,13.9667,0.59,68,29,3.56,NO,1681064453
562,mitsamiouli,-11.3847,43.2844,27.92,78,35,4.54,KM,1681064453
563,san quintin,30.4833,-115.95,17.11,73,52,5.26,MX,1681064453
564,caxito,-8.5785,13.6643,25.96,89,96,2.62,AO,1681064454
565,lucea,18.451,-78.1736,28.81,66,3,3.09,JM,1681064454
566,big rapids,43.6981,-85.4837,17.4,29,0,5.14,US,1681064454
567,tambopata,-12.7333,-69.1833,30.94,58,40,2.57,PE,1681064454
568,kuito,-12.3833,16.9333,16.23,87,82,0.43,AO,1681064454
569,pedernales,18.0384,-71.744,28.22,61,2,3.36,DO,1681064455
570,piacabucu,-10.4056,-36.4344,28.55,65,100,3.99,BR,1681064455
571,celestun,20.8667,-90.4,28.67,56,1,4.17,MX,1681064455
572,albanel,48.8832,-72.4487,7.08,42,95,6.69,CA,1681064455
573,ketchikan,55.3422,-131.6461,6.99,81,100,5.66,US,1681064455
